{
    "ListOfAttraction": [
        {
            "attraction_id": "30225",
            "attraction_name": " (قلعه خانقلی)قلعه سامن",
            "attraction_province_name": "استان همدان",
            "attraction_city_name": "ملایر",
            "attraction_city_id": "961",
            "attraction_province_id": "334",
            "slogan": null,
            "latitude": "34.2101",
            "longitude": "48.7049",
            "lang": "fa",
            "img_url": null
        },
        {
            "attraction_id": "20077",
            "attraction_name": " آبگرم قوتورسوئی و شابیل",
            "attraction_province_name": "استان اردبیل",
            "attraction_city_name": "مشگین شهر",
            "attraction_city_id": "345",
            "attraction_province_id": "310",
            "slogan": null,
            "latitude": "38.3388",
            "longitude": "47.8594",
            "lang": "fa",
            "img_url": null
        },
        {
            "attraction_id": "20840",
            "attraction_name": " آرامگاه حمدالله مستوفی",
            "attraction_province_name": "استان قزوین",
            "attraction_city_name": "قزوین",
            "attraction_city_id": "929",
            "attraction_province_id": "327",
            "slogan": null,
            "latitude": "36.2643",
            "longitude": "50.0106",
            "lang": "fa",
            "img_url": "http://data.parsdid.com/sites/default/files/styles/iranplanner/public/hamd.JPG"
        },
        {
            "attraction_id": "30195",
            "attraction_name": " آرامگاه مولانا زین الدین ابوبکر تایبادی",
            "attraction_province_name": "استان خراسان رضوی",
            "attraction_city_name": "تایباد",
            "attraction_city_id": "455",
            "attraction_province_id": "318",
            "slogan": null,
            "latitude": "34.7326",
            "longitude": "60.7661",
            "lang": "fa",
            "img_url": null
        },
        {
            "attraction_id": "21013",
            "attraction_name": " امامزاده  نور ",
            "attraction_province_name": "استان گلستان",
            "attraction_city_name": "گرگان",
            "attraction_city_id": "936",
            "attraction_province_id": "308",
            "slogan": null,
            "latitude": "36.8429",
            "longitude": "54.4274",
            "lang": "fa",
            "img_url": null
        },
        {
            "attraction_id": "20551",
            "attraction_name": " بازار بزرگ و تاریخی تبریز",
            "attraction_province_name": "استان آذربایجان شرقی",
            "attraction_city_name": "تبریز",
            "attraction_city_id": "608",
            "attraction_province_id": "302",
            "slogan": null,
            "latitude": "38.0789",
            "longitude": "46.2888",
            "lang": "fa",
            "img_url": "http://data.parsdid.com/sites/default/files/styles/iranplanner/public/Tabriz-Bazaar.jpg"
        },
        {
            "attraction_id": "22034",
            "attraction_name": " تکیه بیگلر بیگی (موزه پارینه سنگی)",
            "attraction_province_name": "استان کرمانشاه",
            "attraction_city_name": "کرمانشاه",
            "attraction_city_id": "1102",
            "attraction_province_id": "320",
            "slogan": null,
            "latitude": "34.3188",
            "longitude": "47.0721",
            "lang": "fa",
            "img_url": "http://data.parsdid.com/sites/default/files/styles/iranplanner/public/biglar.jpg"
        },
        {
            "attraction_id": "17864",
            "attraction_name": " حرم مطهر حضرت رضا (علیه السلام)",
            "attraction_province_name": "استان خراسان رضوی",
            "attraction_city_name": "مشهد",
            "attraction_city_id": "441",
            "attraction_province_id": "318",
            "slogan": null,
            "latitude": "36.2868",
            "longitude": "59.6157",
            "lang": "fa",
            "img_url": "http://data.parsdid.com/sites/default/files/styles/iranplanner/public/imamreza.jpg"
        },
        {
            "attraction_id": "28581",
            "attraction_name": " ساحل بندر لنگه تا بندر عباس",
            "attraction_province_name": "استان هرمزگان",
            "attraction_city_name": "بندر لنگه",
            "attraction_city_id": "592",
            "attraction_province_id": "314",
            "slogan": null,
            "latitude": "26.561",
            "longitude": "54.8945",
            "lang": "fa",
            "img_url": "http://data.parsdid.com/sites/default/files/styles/iranplanner/public/lenge.jpg"
        },
        {
            "attraction_id": "21655",
            "attraction_name": " عمارت منظریه (کنسول گری انگلیس)",
            "attraction_province_name": "استان خراسان جنوبی",
            "attraction_city_name": "بیرجند",
            "attraction_city_id": "1030",
            "attraction_province_id": "319",
            "slogan": null,
            "latitude": "32.8347",
            "longitude": "59.198",
            "lang": "fa",
            "img_url": null
        },
        {
            "attraction_id": "17974",
            "attraction_name": " قدمگاه امام رضا علیه السلام",
            "attraction_province_name": "استان خراسان رضوی",
            "attraction_city_name": "نیشابور",
            "attraction_city_id": "444",
            "attraction_province_id": "318",
            "slogan": null,
            "latitude": "36.1061",
            "longitude": "59.0608",
            "lang": "fa",
            "img_url": "http://data.parsdid.com/sites/default/files/styles/iranplanner/public/ghadamgah_imamreza.jpg"
        },
        {
            "attraction_id": "17971",
            "attraction_name": " مجموعه قطب الدین حیدر",
            "attraction_province_name": "استان خراسان رضوی",
            "attraction_city_name": "تربت حیدریه",
            "attraction_city_id": "452",
            "attraction_province_id": "318",
            "slogan": null,
            "latitude": "35.2758",
            "longitude": "59.2138",
            "lang": "fa",
            "img_url": null
        },
        {
            "attraction_id": "20529",
            "attraction_name": " مجموعه گنجعلیخان",
            "attraction_province_name": "استان کرمان",
            "attraction_city_name": "کرمان",
            "attraction_city_id": "654",
            "attraction_province_id": "316",
            "slogan": null,
            "latitude": "30.2896",
            "longitude": "57.0785",
            "lang": "fa",
            "img_url": "http://data.parsdid.com/sites/default/files/styles/iranplanner/public/139301031528132172400833.jpg"
        },
        {
            "attraction_id": "28824",
            "attraction_name": " مدرسه علمیه عقدا",
            "attraction_province_name": "استان یزد",
            "attraction_city_name": "عقدا",
            "attraction_city_id": "3190",
            "attraction_province_id": "331",
            "slogan": null,
            "latitude": "32.4409",
            "longitude": "53.6296",
            "lang": "fa",
            "img_url": "http://data.parsdid.com/sites/default/files/styles/iranplanner/public/elmieAqda.jpg"
        },
        {
            "attraction_id": "21873",
            "attraction_name": " معبد داش کسن",
            "attraction_province_name": "استان زنجان",
            "attraction_city_name": "سلطانیه",
            "attraction_city_id": "1680",
            "attraction_province_id": "332",
            "slogan": null,
            "latitude": "36.3312",
            "longitude": "48.8649",
            "lang": "fa",
            "img_url": "http://data.parsdid.com/sites/default/files/styles/iranplanner/public/dashkasan.jpg"
        },
        {
            "attraction_id": "21529",
            "attraction_name": " موزه رئیس علی دلواری ",
            "attraction_province_name": "استان بوشهر",
            "attraction_city_name": "دلوار",
            "attraction_city_id": "2657",
            "attraction_province_id": "304",
            "slogan": null,
            "latitude": "28.7579",
            "longitude": "51.0724",
            "lang": "fa",
            "img_url": "http://data.parsdid.com/sites/default/files/styles/iranplanner/public/delvari.jpg"
        },
        {
            "attraction_id": "18099",
            "attraction_name": " موزه سنگ هفت تنان",
            "attraction_province_name": "استان فارس",
            "attraction_city_name": "شیراز",
            "attraction_city_id": "483",
            "attraction_province_id": "309",
            "slogan": null,
            "latitude": "29.6273",
            "longitude": "52.5664",
            "lang": "fa",
            "img_url": "http://data.parsdid.com/sites/default/files/styles/iranplanner/public/caption.jpg"
        },
        {
            "attraction_id": "21004",
            "attraction_name": " موزه صنایع دستی (خانه امیرلطیفی)",
            "attraction_province_name": "استان گلستان",
            "attraction_city_name": "گرگان",
            "attraction_city_id": "936",
            "attraction_province_id": "308",
            "slogan": null,
            "latitude": "36.8427",
            "longitude": "54.4297",
            "lang": "fa",
            "img_url": null
        },
        {
            "attraction_id": "21530",
            "attraction_name": " موزه مردم شناسی بوشهر (عمارت طاهری)",
            "attraction_province_name": "استان بوشهر",
            "attraction_city_name": "بندر بوشهر",
            "attraction_city_id": "1992",
            "attraction_province_id": "304",
            "slogan": null,
            "latitude": "27.4767",
            "longitude": "52.6026",
            "lang": "fa",
            "img_url": null
        },
        {
            "attraction_id": "22001",
            "attraction_name": " موزه مردم شناسی زابل",
            "attraction_province_name": "استان سیستان و بلوچستان",
            "attraction_city_name": "زابل",
            "attraction_city_id": "1069",
            "attraction_province_id": "333",
            "slogan": null,
            "latitude": "31.0315",
            "longitude": "61.4992",
            "lang": "fa",
            "img_url": "http://data.parsdid.com/sites/default/files/styles/iranplanner/public/zabolmuseum.jpg"
        },
        {
            "attraction_id": "18096",
            "attraction_name": " موزه پارس",
            "attraction_province_name": "استان فارس",
            "attraction_city_name": "شیراز",
            "attraction_city_id": "483",
            "attraction_province_id": "309",
            "slogan": null,
            "latitude": "29.6176",
            "longitude": "52.5447",
            "lang": "fa",
            "img_url": "http://data.parsdid.com/sites/default/files/styles/iranplanner/public/800px-Mozyeepars_(7).JPG"
        },
        {
            "attraction_id": "22197",
            "attraction_name": " چای خوران",
            "attraction_province_name": "استان مازندران",
            "attraction_city_name": "چالوس",
            "attraction_city_id": "1083",
            "attraction_province_id": "326",
            "slogan": null,
            "latitude": "36.6497",
            "longitude": "51.421",
            "lang": "fa",
            "img_url": null
        },
        {
            "attraction_id": "20552",
            "attraction_name": " کلیسای سنت استپانوس",
            "attraction_province_name": "استان آذربایجان شرقی",
            "attraction_city_name": "جلفا",
            "attraction_city_id": "609",
            "attraction_province_id": "302",
            "slogan": null,
            "latitude": "38.9791",
            "longitude": "45.4734",
            "lang": "fa",
            "img_url": null
        },
        {
            "attraction_id": "29438",
            "attraction_name": "(آتشکده ادریان (فیروز بهرام",
            "attraction_province_name": "استان تهران",
            "attraction_city_name": "تهران",
            "attraction_city_id": "342",
            "attraction_province_id": "330",
            "slogan": null,
            "latitude": "35.6957",
            "longitude": "51.4139",
            "lang": "fa",
            "img_url": null
        },
        {
            "attraction_id": "21927",
            "attraction_name": "(کویر جنوب سمنان (دلازیان",
            "attraction_province_name": "استان سمنان",
            "attraction_city_name": "سمنان",
            "attraction_city_id": "1064",
            "attraction_province_id": "329",
            "slogan": null,
            "latitude": "35.8544",
            "longitude": "53.8948",
            "lang": "fa",
            "img_url": null
        },
        {
            "attraction_id": "30095",
            "attraction_name": ")تپه های رنگی (آلا داغ لار",
            "attraction_province_name": "استان زنجان",
            "attraction_city_name": "ماه نشان",
            "attraction_city_id": "1059",
            "attraction_province_id": "332",
            "slogan": null,
            "latitude": "36.7421",
            "longitude": "47.6721",
            "lang": "fa",
            "img_url": null
        },
        {
            "attraction_id": "29773",
            "attraction_name": "آب انبار آقا",
            "attraction_province_name": "استان قزوین",
            "attraction_city_name": "قزوین",
            "attraction_city_id": "929",
            "attraction_province_id": "327",
            "slogan": null,
            "latitude": "36.2657",
            "longitude": "49.9916",
            "lang": "fa",
            "img_url": null
        },
        {
            "attraction_id": "29796",
            "attraction_name": "آب انبار حاج محمود",
            "attraction_province_name": "استان یزد",
            "attraction_city_name": "عقدا",
            "attraction_city_id": "3190",
            "attraction_province_id": "331",
            "slogan": null,
            "latitude": "32.4403",
            "longitude": "53.6306",
            "lang": "fa",
            "img_url": null
        },
        {
            "attraction_id": "20859",
            "attraction_name": "آب انبار حاج کاظم",
            "attraction_province_name": "استان قزوین",
            "attraction_city_name": "قزوین",
            "attraction_city_id": "929",
            "attraction_province_id": "327",
            "slogan": null,
            "latitude": "36.2688",
            "longitude": "49.993",
            "lang": "fa",
            "img_url": null
        },
        {
            "attraction_id": "28969",
            "attraction_name": "آب انبار دوقلو ",
            "attraction_province_name": "استان اصفهان",
            "attraction_city_name": "خور",
            "attraction_city_id": "1304",
            "attraction_province_id": "312",
            "slogan": null,
            "latitude": "33.7761",
            "longitude": "55.0836",
            "lang": "fa",
            "img_url": "http://data.parsdid.com/sites/default/files/styles/iranplanner/public/abAnbarKhor.jpg"
        },
        {
            "attraction_id": "20847",
            "attraction_name": "آب انبار سرداربزرگ",
            "attraction_province_name": "استان قزوین",
            "attraction_city_name": "قزوین",
            "attraction_city_id": "929",
            "attraction_province_id": "327",
            "slogan": null,
            "latitude": "36.2562",
            "longitude": "50.0049",
            "lang": "fa",
            "img_url": "http://data.parsdid.com/sites/default/files/styles/iranplanner/public/sardarkuchak.jpg"
        },
        {
            "attraction_id": "23996",
            "attraction_name": "آب انبار سنتی کیش",
            "attraction_province_name": "استان هرمزگان",
            "attraction_city_name": "کیش",
            "attraction_city_id": "588",
            "attraction_province_id": "314",
            "slogan": null,
            "latitude": "26.5653",
            "longitude": "53.9697",
            "lang": "fa",
            "img_url": "http://data.parsdid.com/sites/default/files/styles/iranplanner/public/آب-انبار-کیش9.jpg"
        },
        {
            "attraction_id": "29093",
            "attraction_name": "آب انبار شش بادگیر",
            "attraction_province_name": "استان یزد",
            "attraction_city_name": "یزد",
            "attraction_city_id": "644",
            "attraction_province_id": "331",
            "slogan": null,
            "latitude": "31.8874",
            "longitude": "54.3677",
            "lang": "fa",
            "img_url": "http://data.parsdid.com/sites/default/files/styles/iranplanner/public/sheshbadgir.jpg"
        },
        {
            "attraction_id": "29599",
            "attraction_name": "آب انبار قوام",
            "attraction_province_name": "استان بوشهر",
            "attraction_city_name": "بندر بوشهر",
            "attraction_city_id": "1992",
            "attraction_province_id": "304",
            "slogan": null,
            "latitude": "28.9867",
            "longitude": "50.8276",
            "lang": "fa",
            "img_url": null
        },
        {
            "attraction_id": "29051",
            "attraction_name": "آب سرد ویلا دره",
            "attraction_province_name": "استان اردبیل",
            "attraction_city_name": "سرعین",
            "attraction_city_id": "1302",
            "attraction_province_id": "310",
            "slogan": null,
            "latitude": "38.1782",
            "longitude": "48.0569",
            "lang": "fa",
            "img_url": "http://data.parsdid.com/sites/default/files/styles/iranplanner/public/vilaDare.jpg"
        },
        {
            "attraction_id": "29929",
            "attraction_name": "آب پخش کن",
            "attraction_province_name": "استان سمنان",
            "attraction_city_name": "سمنان",
            "attraction_city_id": "1064",
            "attraction_province_id": "329",
            "slogan": null,
            "latitude": "35.6086",
            "longitude": "53.3627",
            "lang": "fa",
            "img_url": null
        },
        {
            "attraction_id": "27342",
            "attraction_name": "آب گرم ",
            "attraction_province_name": "استان اردبیل",
            "attraction_city_name": "سرعین",
            "attraction_city_id": "1302",
            "attraction_province_id": "310",
            "slogan": null,
            "latitude": "38.1504",
            "longitude": "48.0747",
            "lang": "fa",
            "img_url": "http://data.parsdid.com/sites/default/files/styles/iranplanner/public/ab-e-garm.jpg"
        },
        {
            "attraction_id": "20244",
            "attraction_name": "آبشار آب سفید",
            "attraction_province_name": "استان لرستان",
            "attraction_city_name": "الیگودرز",
            "attraction_city_id": "601",
            "attraction_province_id": "323",
            "slogan": null,
            "latitude": "32.9992",
            "longitude": "49.5793",
            "lang": "fa",
            "img_url": "http://data.parsdid.com/sites/default/files/styles/iranplanner/public/abSefid.jpg"
        },
        {
            "attraction_id": "22172",
            "attraction_name": "آبشار آب پری",
            "attraction_province_name": "استان مازندران",
            "attraction_city_name": "نور",
            "attraction_city_id": "1081",
            "attraction_province_id": "326",
            "slogan": null,
            "latitude": "36.4776",
            "longitude": "51.915",
            "lang": "fa",
            "img_url": null
        },
        {
            "attraction_id": "20603",
            "attraction_name": "آبشار آسیاب خرابه",
            "attraction_province_name": "استان آذربایجان شرقی",
            "attraction_city_name": "جلفا",
            "attraction_city_id": "609",
            "attraction_province_id": "302",
            "slogan": null,
            "latitude": "38.8569",
            "longitude": "45.8563",
            "lang": "fa",
            "img_url": null
        },
        {
            "attraction_id": "20231",
            "attraction_name": "آبشار آفرینه",
            "attraction_province_name": "استان لرستان",
            "attraction_city_name": "پلدختر",
            "attraction_city_id": "602",
            "attraction_province_id": "323",
            "slogan": null,
            "latitude": "33.3153",
            "longitude": "47.8864",
            "lang": "fa",
            "img_url": "http://data.parsdid.com/sites/default/files/styles/iranplanner/public/afarinehwaterfall.jpg"
        },
        {
            "attraction_id": "17870",
            "attraction_name": "آبشار اخلمد",
            "attraction_province_name": "استان خراسان رضوی",
            "attraction_city_name": "چناران",
            "attraction_city_id": "446",
            "attraction_province_id": "318",
            "slogan": null,
            "latitude": "36.5979",
            "longitude": "58.9252",
            "lang": "fa",
            "img_url": "http://data.parsdid.com/sites/default/files/styles/iranplanner/public/akhlamad.jpg"
        },
        {
            "attraction_id": "30412",
            "attraction_name": "آبشار اول و دوم اخلمد",
            "attraction_province_name": "استان خراسان رضوی",
            "attraction_city_name": "چناران",
            "attraction_city_id": "446",
            "attraction_province_id": "318",
            "slogan": null,
            "latitude": "36.597",
            "longitude": "58.9536",
            "lang": "fa",
            "img_url": null
        },
        {
            "attraction_id": "30346",
            "attraction_name": "آبشار بالی قایه",
            "attraction_province_name": "استان گلستان",
            "attraction_city_name": "کلاله",
            "attraction_city_id": "935",
            "attraction_province_id": "308",
            "slogan": null,
            "latitude": "37.7095",
            "longitude": "55.8364",
            "lang": "fa",
            "img_url": null
        },
        {
            "attraction_id": "28954",
            "attraction_name": "آبشار بیشه",
            "attraction_province_name": "استان لرستان",
            "attraction_city_name": "دورود",
            "attraction_city_id": "604",
            "attraction_province_id": "323",
            "slogan": null,
            "latitude": "33.3304",
            "longitude": "48.8787",
            "lang": "fa",
            "img_url": "http://data.parsdid.com/sites/default/files/styles/iranplanner/public/bishe.jpg"
        },
        {
            "attraction_id": "22050",
            "attraction_name": "آبشار دربند صحنه",
            "attraction_province_name": "استان کرمانشاه",
            "attraction_city_name": "صحنه",
            "attraction_city_id": "1110",
            "attraction_province_id": "320",
            "slogan": null,
            "latitude": "34.4935",
            "longitude": "47.6998",
            "lang": "fa",
            "img_url": "http://data.parsdid.com/sites/default/files/styles/iranplanner/public/darbandSahne.jpg"
        },
        {
            "attraction_id": "21093",
            "attraction_name": "آبشار دودوزن",
            "attraction_province_name": "استان گیلان",
            "attraction_city_name": "شفت",
            "attraction_city_id": "955",
            "attraction_province_id": "307",
            "slogan": null,
            "latitude": "37.0121",
            "longitude": "49.2514",
            "lang": "fa",
            "img_url": null
        },
        {
            "attraction_id": "29032",
            "attraction_name": "آبشار دیز",
            "attraction_province_name": "استان اردبیل",
            "attraction_city_name": "خلخال",
            "attraction_city_id": "624",
            "attraction_province_id": "310",
            "slogan": null,
            "latitude": "37.3206",
            "longitude": "48.7403",
            "lang": "fa",
            "img_url": "http://data.parsdid.com/sites/default/files/styles/iranplanner/public/diz.jpg"
        },
        {
            "attraction_id": "29986",
            "attraction_name": "آبشار رامینه",
            "attraction_province_name": "استان گیلان",
            "attraction_city_name": "ماسال",
            "attraction_city_id": "956",
            "attraction_province_id": "307",
            "slogan": null,
            "latitude": "37.318",
            "longitude": "48.9857",
            "lang": "fa",
            "img_url": null
        },
        {
            "attraction_id": "20506",
            "attraction_name": "آبشار راین(زر رود)",
            "attraction_province_name": "استان کرمان",
            "attraction_city_name": "کرمان",
            "attraction_city_id": "654",
            "attraction_province_id": "316",
            "slogan": null,
            "latitude": "29.5498",
            "longitude": "57.2979",
            "lang": "fa",
            "img_url": null
        },
        {
            "attraction_id": "30021",
            "attraction_name": "آبشار شورآب",
            "attraction_province_name": "استان مازندران",
            "attraction_city_name": "سوادکوه",
            "attraction_city_id": "1079",
            "attraction_province_id": "326",
            "slogan": null,
            "latitude": "36.0927",
            "longitude": "53.062",
            "lang": "fa",
            "img_url": null
        },
        {
            "attraction_id": "21087",
            "attraction_name": "آبشار لونک",
            "attraction_province_name": "استان گیلان",
            "attraction_city_name": "سیاهکل",
            "attraction_city_id": "957",
            "attraction_province_id": "307",
            "slogan": null,
            "latitude": "37.0086",
            "longitude": "49.8639",
            "lang": "fa",
            "img_url": "http://data.parsdid.com/sites/default/files/styles/iranplanner/public/lunak.jpg"
        },
        {
            "attraction_id": "20985",
            "attraction_name": "آبشار لوه",
            "attraction_province_name": "استان گلستان",
            "attraction_city_name": "گالیکش",
            "attraction_city_id": "1391",
            "attraction_province_id": "308",
            "slogan": null,
            "latitude": "37.3552",
            "longitude": "55.6668",
            "lang": "fa",
            "img_url": null
        },
        {
            "attraction_id": "21941",
            "attraction_name": "آبشار مجن",
            "attraction_province_name": "استان سمنان",
            "attraction_city_name": "بسطام",
            "attraction_city_id": "1321",
            "attraction_province_id": "329",
            "slogan": null,
            "latitude": "36.4798",
            "longitude": "54.5517",
            "lang": "fa",
            "img_url": "http://data.parsdid.com/sites/default/files/styles/iranplanner/public/mjn.jpg"
        },
        {
            "attraction_id": "29582",
            "attraction_name": "آبشار نره گر",
            "attraction_province_name": "استان اردبیل",
            "attraction_city_name": "خلخال",
            "attraction_city_id": "624",
            "attraction_province_id": "310",
            "slogan": null,
            "latitude": "37.445",
            "longitude": "48.666",
            "lang": "fa",
            "img_url": null
        },
        {
            "attraction_id": "17609",
            "attraction_name": "آبشار نیاسر",
            "attraction_province_name": "استان اصفهان",
            "attraction_city_name": "نیاسر",
            "attraction_city_id": "2149",
            "attraction_province_id": "312",
            "slogan": null,
            "latitude": "33.9715",
            "longitude": "51.1472",
            "lang": "fa",
            "img_url": "http://data.parsdid.com/sites/default/files/styles/iranplanner/public/6969-1194594121-2.jpg"
        },
        {
            "attraction_id": "29398",
            "attraction_name": "آبشار هفت آسیاب",
            "attraction_province_name": "استان ایلام",
            "attraction_city_name": "دره شهر",
            "attraction_city_id": "1023",
            "attraction_province_id": "313",
            "slogan": null,
            "latitude": "32.9764",
            "longitude": "47.6321",
            "lang": "fa",
            "img_url": null
        },
        {
            "attraction_id": "21029",
            "attraction_name": "آبشار و روستای چینو",
            "attraction_province_name": "استان گلستان",
            "attraction_city_name": "علی آباد کتول",
            "attraction_city_id": "1337",
            "attraction_province_id": "308",
            "slogan": null,
            "latitude": "36.8422",
            "longitude": "54.9385",
            "lang": "fa",
            "img_url": null
        },
        {
            "attraction_id": "28939",
            "attraction_name": "آبشار و چشمه حضرت موسی تمین",
            "attraction_province_name": "استان سیستان و بلوچستان",
            "attraction_city_name": "میرجاوه",
            "attraction_city_id": "1323",
            "attraction_province_id": "333",
            "slogan": null,
            "latitude": "28.6881",
            "longitude": "61.1561",
            "lang": "fa",
            "img_url": "http://data.parsdid.com/sites/default/files/styles/iranplanner/public/musawaterfall.jpg"
        },
        {
            "attraction_id": "21150",
            "attraction_name": "آبشار و کتیبه گنجنامه",
            "attraction_province_name": "استان همدان",
            "attraction_city_name": "همدان",
            "attraction_city_id": "315",
            "attraction_province_id": "334",
            "slogan": null,
            "latitude": "34.763",
            "longitude": "48.4364",
            "lang": "fa",
            "img_url": "http://data.parsdid.com/sites/default/files/styles/iranplanner/public/ganjname.jpg"
        },
        {
            "attraction_id": "21051",
            "attraction_name": "آبشار ویسادار",
            "attraction_province_name": "استان گیلان",
            "attraction_city_name": "رضوانشهر",
            "attraction_city_id": "951",
            "attraction_province_id": "307",
            "slogan": null,
            "latitude": "37.5896",
            "longitude": "48.9245",
            "lang": "fa",
            "img_url": null
        },
        {
            "attraction_id": "20984",
            "attraction_name": "آبشار پارک گلستان یا آق سو",
            "attraction_province_name": "استان گلستان",
            "attraction_city_name": "مینودشت",
            "attraction_city_id": "939",
            "attraction_province_id": "308",
            "slogan": null,
            "latitude": "37.3731",
            "longitude": "55.9692",
            "lang": "fa",
            "img_url": null
        },
        {
            "attraction_id": "20986",
            "attraction_name": "آبشار کبودوال",
            "attraction_province_name": "استان گلستان",
            "attraction_city_name": "علی آباد کتول",
            "attraction_city_id": "1337",
            "attraction_province_id": "308",
            "slogan": null,
            "latitude": "36.872",
            "longitude": "54.8886",
            "lang": "fa",
            "img_url": "http://data.parsdid.com/sites/default/files/styles/iranplanner/public/kaboodwall.jpg"
        },
        {
            "attraction_id": "17763",
            "attraction_name": "آبشار کرکبود",
            "attraction_province_name": "استان البرز",
            "attraction_city_name": "ساوجبلاغ",
            "attraction_city_id": "475",
            "attraction_province_id": "301",
            "slogan": null,
            "latitude": "36.2205",
            "longitude": "50.855",
            "lang": "fa",
            "img_url": "http://data.parsdid.com/sites/default/files/styles/iranplanner/public/آبشار-کرکبود.jpg"
        },
        {
            "attraction_id": "28485",
            "attraction_name": "آبشار کیوان",
            "attraction_province_name": "استان کهگیلویه و بویراحمد",
            "attraction_city_name": "گچساران",
            "attraction_city_id": "1121",
            "attraction_province_id": "325",
            "slogan": null,
            "latitude": "30.3832",
            "longitude": "50.5524",
            "lang": "fa",
            "img_url": "http://data.parsdid.com/sites/default/files/styles/iranplanner/public/keyvanwaterfall.jpg"
        },
        {
            "attraction_id": "21876",
            "attraction_name": "آبشار گله خانه",
            "attraction_province_name": "استان زنجان",
            "attraction_city_name": "ابهر",
            "attraction_city_id": "1063",
            "attraction_province_id": "332",
            "slogan": null,
            "latitude": "36.3201",
            "longitude": "49.3278",
            "lang": "fa",
            "img_url": "http://data.parsdid.com/sites/default/files/styles/iranplanner/public/glkhane.jpg"
        },
        {
            "attraction_id": "30413",
            "attraction_name": "آبشارهای سوم و چهارم اخلمد",
            "attraction_province_name": "استان خراسان رضوی",
            "attraction_city_name": "چناران",
            "attraction_city_id": "446",
            "attraction_province_id": "318",
            "slogan": null,
            "latitude": "36.6416",
            "longitude": "59.1214",
            "lang": "fa",
            "img_url": null
        },
        {
            "attraction_id": "21515",
            "attraction_name": "آبگرم اهرم",
            "attraction_province_name": "استان بوشهر",
            "attraction_city_name": "اهرم",
            "attraction_city_id": "2642",
            "attraction_province_id": "304",
            "slogan": null,
            "latitude": "28.8977",
            "longitude": "51.3013",
            "lang": "fa",
            "img_url": null
        },
        {
            "attraction_id": "21463",
            "attraction_name": "آبگرم دهلران",
            "attraction_province_name": "استان ایلام",
            "attraction_city_name": "دهلران",
            "attraction_city_id": "1026",
            "attraction_province_id": "313",
            "slogan": null,
            "latitude": "32.7202",
            "longitude": "47.297",
            "lang": "fa",
            "img_url": "http://data.parsdid.com/sites/default/files/styles/iranplanner/public/dehloranhotspirng.jpg"
        },
        {
            "attraction_id": "17863",
            "attraction_name": "آبگرم فردوس",
            "attraction_province_name": "استان خراسان جنوبی",
            "attraction_city_name": "فردوس",
            "attraction_city_id": "442",
            "attraction_province_id": "319",
            "slogan": null,
            "latitude": "34.1385",
            "longitude": "58.2156",
            "lang": "fa",
            "img_url": null
        },
        {
            "attraction_id": "29534",
            "attraction_name": "آبگرم قینرجه",
            "attraction_province_name": "استان اردبیل",
            "attraction_city_name": "نیر",
            "attraction_city_id": "626",
            "attraction_province_id": "310",
            "slogan": null,
            "latitude": "38.0064",
            "longitude": "47.9623",
            "lang": "fa",
            "img_url": null
        },
        {
            "attraction_id": "22231",
            "attraction_name": "آبگرم محلات",
            "attraction_province_name": "استان مرکزی",
            "attraction_city_name": "محلات",
            "attraction_city_id": "1093",
            "attraction_province_id": "324",
            "slogan": null,
            "latitude": "34.0061",
            "longitude": "50.5484",
            "lang": "fa",
            "img_url": "http://data.parsdid.com/sites/default/files/styles/iranplanner/public/abGarm.jpg"
        },
        {
            "attraction_id": "20444",
            "attraction_name": "آبگرم معدنی مرتضی علی ",
            "attraction_province_name": "استان خراسان جنوبی",
            "attraction_city_name": "طبس",
            "attraction_city_id": "643",
            "attraction_province_id": "319",
            "slogan": null,
            "latitude": "33.6602",
            "longitude": "57.1602",
            "lang": "fa",
            "img_url": "http://data.parsdid.com/sites/default/files/styles/iranplanner/public/cheshme2101-mm7.jpg"
        },
        {
            "attraction_id": "20172",
            "attraction_name": "آبگرم گنو",
            "attraction_province_name": "استان هرمزگان",
            "attraction_city_name": "بندر عباس",
            "attraction_city_id": "593",
            "attraction_province_id": "314",
            "slogan": null,
            "latitude": "27.4462",
            "longitude": "56.3038",
            "lang": "fa",
            "img_url": "http://data.parsdid.com/sites/default/files/styles/iranplanner/public/abgarm-geno.jpg"
        },
        {
            "attraction_id": "28145",
            "attraction_name": "آتشکده آتشکوه",
            "attraction_province_name": "استان مرکزی",
            "attraction_city_name": "محلات",
            "attraction_city_id": "1093",
            "attraction_province_id": "324",
            "slogan": null,
            "latitude": "33.8725",
            "longitude": "50.6334",
            "lang": "fa",
            "img_url": "http://data.parsdid.com/sites/default/files/styles/iranplanner/public/atashkooh.jpg"
        },
        {
            "attraction_id": "21700",
            "attraction_name": "آتشکده اسپاخو",
            "attraction_province_name": "استان خراسان شمالی",
            "attraction_city_name": "مانه و سملقان",
            "attraction_city_id": "1036",
            "attraction_province_id": "317",
            "slogan": null,
            "latitude": "37.4037",
            "longitude": "56.3701",
            "lang": "fa",
            "img_url": "http://data.parsdid.com/sites/default/files/styles/iranplanner/public/spakho.jpg"
        },
        {
            "attraction_id": "30196",
            "attraction_name": "آتشکده بازه هور",
            "attraction_province_name": "استان خراسان رضوی",
            "attraction_city_name": "تربت حیدریه",
            "attraction_city_id": "452",
            "attraction_province_id": "318",
            "slogan": null,
            "latitude": "35.7673",
            "longitude": "59.3785",
            "lang": "fa",
            "img_url": null
        },
        {
            "attraction_id": "27928",
            "attraction_name": "آتشکده دولت خانه کرمان",
            "attraction_province_name": "استان کرمان",
            "attraction_city_name": "کرمان",
            "attraction_city_id": "654",
            "attraction_province_id": "316",
            "slogan": null,
            "latitude": "30.2959",
            "longitude": "57.0882",
            "lang": "fa",
            "img_url": "http://data.parsdid.com/sites/default/files/styles/iranplanner/public/dolatkhanehkerman.jpg"
        },
        {
            "attraction_id": "20431",
            "attraction_name": "آتشکده زرتشتیان",
            "attraction_province_name": "استان یزد",
            "attraction_city_name": "یزد",
            "attraction_city_id": "644",
            "attraction_province_id": "331",
            "slogan": null,
            "latitude": "31.8813",
            "longitude": "54.3732",
            "lang": "fa",
            "img_url": "http://data.parsdid.com/sites/default/files/styles/iranplanner/public/atashkade.jpg"
        },
        {
            "attraction_id": "29427",
            "attraction_name": "آتشکده قمپ",
            "attraction_province_name": "استان فارس",
            "attraction_city_name": "فسا",
            "attraction_city_id": "1326",
            "attraction_province_id": "309",
            "slogan": null,
            "latitude": "29.145",
            "longitude": "53.6234",
            "lang": "fa",
            "img_url": null
        },
        {
            "attraction_id": "29818",
            "attraction_name": "آتشکده نویس",
            "attraction_province_name": "استان قم",
            "attraction_city_name": "قم",
            "attraction_city_id": "933",
            "attraction_province_id": "328",
            "slogan": null,
            "latitude": "34.4814",
            "longitude": "50.6466",
            "lang": "fa",
            "img_url": null
        },
        {
            "attraction_id": "17658",
            "attraction_name": "آتشگاه",
            "attraction_province_name": "استان اصفهان",
            "attraction_city_name": "اصفهان",
            "attraction_city_id": "344",
            "attraction_province_id": "312",
            "slogan": null,
            "latitude": "32.6478",
            "longitude": "51.5701",
            "lang": "fa",
            "img_url": "http://data.parsdid.com/sites/default/files/styles/iranplanner/public/atashgahEsf.jpg"
        },
        {
            "attraction_id": "30392",
            "attraction_name": "آرامگاه آیت الله مدرس",
            "attraction_province_name": "استان خراسان رضوی",
            "attraction_city_name": "کاشمر",
            "attraction_city_id": "456",
            "attraction_province_id": "318",
            "slogan": null,
            "latitude": "35.2313",
            "longitude": "58.4534",
            "lang": "fa",
            "img_url": null
        },
        {
            "attraction_id": "29770",
            "attraction_name": "آرامگاه استاد بنان",
            "attraction_province_name": "استان البرز",
            "attraction_city_name": "کرج",
            "attraction_city_id": "1015",
            "attraction_province_id": "301",
            "slogan": null,
            "latitude": "35.8172",
            "longitude": "50.9231",
            "lang": "fa",
            "img_url": null
        },
        {
            "attraction_id": "29979",
            "attraction_name": "آرامگاه استاد محمد رضا لطفی",
            "attraction_province_name": "استان گلستان",
            "attraction_city_name": "گرگان",
            "attraction_city_id": "936",
            "attraction_province_id": "308",
            "slogan": null,
            "latitude": "36.8462",
            "longitude": "54.4275",
            "lang": "fa",
            "img_url": null
        },
        {
            "attraction_id": "29771",
            "attraction_name": "آرامگاه استاد نور علی الهی",
            "attraction_province_name": "استان البرز",
            "attraction_city_name": "هشتگرد",
            "attraction_city_id": "1590",
            "attraction_province_id": "301",
            "slogan": null,
            "latitude": "35.9619",
            "longitude": "50.68",
            "lang": "fa",
            "img_url": null
        },
        {
            "attraction_id": "21164",
            "attraction_name": "آرامگاه بابا طاهر عریان",
            "attraction_province_name": "استان همدان",
            "attraction_city_name": "همدان",
            "attraction_city_id": "315",
            "attraction_province_id": "334",
            "slogan": null,
            "latitude": "34.809",
            "longitude": "48.5088",
            "lang": "fa",
            "img_url": "http://data.parsdid.com/sites/default/files/styles/iranplanner/public/babataher.jpeg"
        },
        {
            "attraction_id": "30089",
            "attraction_name": "آرامگاه بش قارداش",
            "attraction_province_name": "استان خراسان شمالی",
            "attraction_city_name": "بجنورد",
            "attraction_city_id": "1035",
            "attraction_province_id": "317",
            "slogan": null,
            "latitude": "37.4114",
            "longitude": "57.3015",
            "lang": "fa",
            "img_url": null
        },
        {
            "attraction_id": "21121",
            "attraction_name": "آرامگاه بوعلی سینا",
            "attraction_province_name": "استان همدان",
            "attraction_city_name": "همدان",
            "attraction_city_id": "315",
            "attraction_province_id": "334",
            "slogan": null,
            "latitude": "34.7916",
            "longitude": "48.5133",
            "lang": "fa",
            "img_url": "http://data.parsdid.com/sites/default/files/styles/iranplanner/public/booAli.jpg"
        },
        {
            "attraction_id": "17926",
            "attraction_name": "آرامگاه حاج ملا هادی سبزواری (آرامگاه اسرار)",
            "attraction_province_name": "استان خراسان رضوی",
            "attraction_city_name": "سبزوار",
            "attraction_city_id": "450",
            "attraction_province_id": "318",
            "slogan": null,
            "latitude": "36.2051",
            "longitude": "57.6858",
            "lang": "fa",
            "img_url": "http://data.parsdid.com/sites/default/files/styles/iranplanner/public/sabzvari.jpg"
        },
        {
            "attraction_id": "18102",
            "attraction_name": "آرامگاه حافظ (حافظیه)",
            "attraction_province_name": "استان فارس",
            "attraction_city_name": "شیراز",
            "attraction_city_id": "483",
            "attraction_province_id": "309",
            "slogan": null,
            "latitude": "29.6255",
            "longitude": "52.5584",
            "lang": "fa",
            "img_url": "http://data.parsdid.com/sites/default/files/styles/iranplanner/public/Hafez-Tomb-9.jpg"
        },
        {
            "attraction_id": "29727",
            "attraction_name": "آرامگاه حافظ ابرو",
            "attraction_province_name": "استان خراسان رضوی",
            "attraction_city_name": "خواف",
            "attraction_city_id": "459",
            "attraction_province_id": "318",
            "slogan": null,
            "latitude": "34.5725",
            "longitude": "60.1366",
            "lang": "fa",
            "img_url": null
        },
        {
            "attraction_id": "17865",
            "attraction_name": "آرامگاه حکیم ابوالقاسم فردوسی",
            "attraction_province_name": "استان خراسان رضوی",
            "attraction_city_name": "مشهد",
            "attraction_city_id": "441",
            "attraction_province_id": "318",
            "slogan": null,
            "latitude": "36.4862",
            "longitude": "59.5175",
            "lang": "fa",
            "img_url": "http://data.parsdid.com/sites/default/files/styles/iranplanner/public/ferdowsi.jpg"
        },
        {
            "attraction_id": "17867",
            "attraction_name": "آرامگاه حکیم عمر خیام نیشابوری",
            "attraction_province_name": "استان خراسان رضوی",
            "attraction_city_name": "نیشابور",
            "attraction_city_id": "444",
            "attraction_province_id": "318",
            "slogan": null,
            "latitude": "36.1659",
            "longitude": "58.8223",
            "lang": "fa",
            "img_url": "http://data.parsdid.com/sites/default/files/styles/iranplanner/public/omarkhayam.jpg"
        },
        {
            "attraction_id": "30213",
            "attraction_name": "آرامگاه دکتر حسابی",
            "attraction_province_name": "استان مرکزی",
            "attraction_city_name": "تفرش",
            "attraction_city_id": "1096",
            "attraction_province_id": "324",
            "slogan": null,
            "latitude": "34.6884",
            "longitude": "50.0056",
            "lang": "fa",
            "img_url": null
        },
        {
            "attraction_id": "21105",
            "attraction_name": "آرامگاه دکتر معین",
            "attraction_province_name": "استان گیلان",
            "attraction_city_name": "آستانه اشرفیه",
            "attraction_city_id": "952",
            "attraction_province_id": "307",
            "slogan": null,
            "latitude": "37.2665",
            "longitude": "49.9436",
            "lang": "fa",
            "img_url": null
        },
        {
            "attraction_id": "18103",
            "attraction_name": "آرامگاه سعدی",
            "attraction_province_name": "استان فارس",
            "attraction_city_name": "شیراز",
            "attraction_city_id": "483",
            "attraction_province_id": "309",
            "slogan": null,
            "latitude": "29.6225",
            "longitude": "52.5834",
            "lang": "fa",
            "img_url": "http://data.parsdid.com/sites/default/files/styles/iranplanner/public/800px-Saadiyeh.jpg"
        },
        {
            "attraction_id": "29308",
            "attraction_name": "آرامگاه سهراب سپهری",
            "attraction_province_name": "استان اصفهان",
            "attraction_city_name": "مشهد اردهال",
            "attraction_city_id": "3192",
            "attraction_province_id": "312",
            "slogan": null,
            "latitude": "34.0387",
            "longitude": "51.0511",
            "lang": "fa",
            "img_url": "http://data.parsdid.com/sites/default/files/styles/iranplanner/public/aramgaheSohrab.jpg"
        },
        {
            "attraction_id": "27919",
            "attraction_name": "آرامگاه شاه نعمت الله ولی",
            "attraction_province_name": "استان کرمان",
            "attraction_city_name": "ماهان",
            "attraction_city_id": "1332",
            "attraction_province_id": "316",
            "slogan": null,
            "latitude": "30.0599",
            "longitude": "57.2904",
            "lang": "fa",
            "img_url": "http://data.parsdid.com/sites/default/files/styles/iranplanner/public/shahnematollahvali.jpg"
        },
        {
            "attraction_id": "18014",
            "attraction_name": "آرامگاه شاهچراغ",
            "attraction_province_name": "استان فارس",
            "attraction_city_name": "شیراز",
            "attraction_city_id": "483",
            "attraction_province_id": "309",
            "slogan": null,
            "latitude": "29.6097",
            "longitude": "52.5433",
            "lang": "fa",
            "img_url": "http://data.parsdid.com/sites/default/files/styles/iranplanner/public/Ali_0511.jpg"
        },
        {
            "attraction_id": "21961",
            "attraction_name": "آرامگاه شیخ ابوالحسن خرقانی",
            "attraction_province_name": "استان سمنان",
            "attraction_city_name": "شاهرود",
            "attraction_city_id": "1065",
            "attraction_province_id": "329",
            "slogan": null,
            "latitude": "36.6338",
            "longitude": "55.0693",
            "lang": "fa",
            "img_url": "http://data.parsdid.com/sites/default/files/styles/iranplanner/public/kharaghani.jpg"
        },
        {
            "attraction_id": "17927",
            "attraction_name": "آرامگاه شیخ احمد جامی",
            "attraction_province_name": "استان خراسان رضوی",
            "attraction_city_name": "تربت جام",
            "attraction_city_id": "453",
            "attraction_province_id": "318",
            "slogan": null,
            "latitude": "35.2469",
            "longitude": "60.629",
            "lang": "fa",
            "img_url": "http://data.parsdid.com/sites/default/files/styles/iranplanner/public/jamimosqueahmad.jpg"
        },
        {
            "attraction_id": "18007",
            "attraction_name": "آرامگاه شیخ بابا لقمان سرخس ",
            "attraction_province_name": "استان خراسان رضوی",
            "attraction_city_name": "سرخس",
            "attraction_city_id": "445",
            "attraction_province_id": "318",
            "slogan": null,
            "latitude": "36.5602",
            "longitude": "61.1569",
            "lang": "fa",
            "img_url": "http://data.parsdid.com/sites/default/files/styles/iranplanner/public/باب-قمان-45.jpg"
        },
        {
            "attraction_id": "17925",
            "attraction_name": "آرامگاه عطار نیشابوری",
            "attraction_province_name": "استان خراسان رضوی",
            "attraction_city_name": "نیشابور",
            "attraction_city_id": "444",
            "attraction_province_id": "318",
            "slogan": null,
            "latitude": "36.1672",
            "longitude": "58.807",
            "lang": "fa",
            "img_url": "http://data.parsdid.com/sites/default/files/styles/iranplanner/public/attar.jpg"
        },
        {
            "attraction_id": "21046",
            "attraction_name": "آرامگاه میرزا کوچک جنگلی",
            "attraction_province_name": "استان گیلان",
            "attraction_city_name": "رشت",
            "attraction_city_id": "947",
            "attraction_province_id": "307",
            "slogan": null,
            "latitude": "37.2598",
            "longitude": "49.5711",
            "lang": "fa",
            "img_url": null
        },
        {
            "attraction_id": "17866",
            "attraction_name": "آرامگاه نادر شاه افشار",
            "attraction_province_name": "استان خراسان رضوی",
            "attraction_city_name": "مشهد",
            "attraction_city_id": "441",
            "attraction_province_id": "318",
            "slogan": null,
            "latitude": "36.2949",
            "longitude": "59.6104",
            "lang": "fa",
            "img_url": "http://data.parsdid.com/sites/default/files/styles/iranplanner/public/1258743538_hccvion.jpg"
        },
        {
            "attraction_id": "24215",
            "attraction_name": "آرامگاه ننه نادر (مادر نادرشاه )",
            "attraction_province_name": "استان فارس",
            "attraction_city_name": "لارستان",
            "attraction_city_id": "489",
            "attraction_province_id": "309",
            "slogan": null,
            "latitude": "27.6861",
            "longitude": "54.3344",
            "lang": "fa",
            "img_url": "http://data.parsdid.com/sites/default/files/styles/iranplanner/public/naneNader.jpg"
        },
        {
            "attraction_id": "21901",
            "attraction_name": "آرامگاه و مجموعه تاریخی بایزید بسطامی",
            "attraction_province_name": "استان سمنان",
            "attraction_city_name": "بسطام",
            "attraction_city_id": "1321",
            "attraction_province_id": "329",
            "slogan": null,
            "latitude": "36.4844",
            "longitude": "55.0002",
            "lang": "fa",
            "img_url": "http://data.parsdid.com/sites/default/files/styles/iranplanner/public/bayazidbastami.jpg"
        },
        {
            "attraction_id": "24171",
            "attraction_name": "آرامگاه کوروش کبیر (پاسارگاد)",
            "attraction_province_name": "استان فارس",
            "attraction_city_name": "پاسارگاد",
            "attraction_city_id": "1185",
            "attraction_province_id": "309",
            "slogan": null,
            "latitude": "30.1939",
            "longitude": "53.1672",
            "lang": "fa",
            "img_url": "http://data.parsdid.com/sites/default/files/styles/iranplanner/public/kuroshtomb.jpg"
        },
        {
            "attraction_id": "29832",
            "attraction_name": "آرامگاه گور دختر",
            "attraction_province_name": "استان بوشهر",
            "attraction_city_name": "دشتستان",
            "attraction_city_id": "1016",
            "attraction_province_id": "304",
            "slogan": null,
            "latitude": "29.1523",
            "longitude": "51.5268",
            "lang": "fa",
            "img_url": null
        },
        {
            "attraction_id": "18003",
            "attraction_name": "آس بادهای نشتیفان",
            "attraction_province_name": "استان خراسان رضوی",
            "attraction_city_name": "خواف",
            "attraction_city_id": "459",
            "attraction_province_id": "318",
            "slogan": null,
            "latitude": "34.432",
            "longitude": "60.1756",
            "lang": "fa",
            "img_url": "http://data.parsdid.com/sites/default/files/styles/iranplanner/public/asbadhaayenashtifan.jpg"
        },
        {
            "attraction_id": "27804",
            "attraction_name": "آسبادهای نهبندان",
            "attraction_province_name": "استان خراسان جنوبی",
            "attraction_city_name": "نهبندان",
            "attraction_city_id": "1032",
            "attraction_province_id": "319",
            "slogan": null,
            "latitude": "31.5615",
            "longitude": "60.102",
            "lang": "fa",
            "img_url": "http://data.parsdid.com/sites/default/files/styles/iranplanner/public/asbadnehbandan.jpg"
        },
        {
            "attraction_id": "20882",
            "attraction_name": "آستانه مقدسه حضرت معصومه (س) ",
            "attraction_province_name": "استان قم",
            "attraction_city_name": "قم",
            "attraction_city_id": "933",
            "attraction_province_id": "328",
            "slogan": null,
            "latitude": "34.6416",
            "longitude": "50.8788",
            "lang": "fa",
            "img_url": "http://data.parsdid.com/sites/default/files/styles/iranplanner/public/haramQom.jpg"
        },
        {
            "attraction_id": "29305",
            "attraction_name": "آسیاب نیاسر",
            "attraction_province_name": "استان اصفهان",
            "attraction_city_name": "نیاسر",
            "attraction_city_id": "2149",
            "attraction_province_id": "312",
            "slogan": null,
            "latitude": "33.9705",
            "longitude": "51.1448",
            "lang": "fa",
            "img_url": "http://data.parsdid.com/sites/default/files/styles/iranplanner/public/asiab.jpg"
        },
        {
            "attraction_id": "30180",
            "attraction_name": "آسیاب های کاخک",
            "attraction_province_name": "استان خراسان رضوی",
            "attraction_city_name": "گناباد",
            "attraction_city_id": "448",
            "attraction_province_id": "318",
            "slogan": null,
            "latitude": "34.1418",
            "longitude": "58.6367",
            "lang": "fa",
            "img_url": null
        },
        {
            "attraction_id": "17999",
            "attraction_name": "آسیاب‌های بشرویه",
            "attraction_province_name": "استان خراسان جنوبی",
            "attraction_city_name": "بشرویه",
            "attraction_city_id": "1614",
            "attraction_province_id": "319",
            "slogan": null,
            "latitude": "33.8614",
            "longitude": "57.3585",
            "lang": "fa",
            "img_url": null
        },
        {
            "attraction_id": "24008",
            "attraction_name": "آکواریوم و نمایشگاه خزندگان کیش",
            "attraction_province_name": "استان هرمزگان",
            "attraction_city_name": "کیش",
            "attraction_city_id": "588",
            "attraction_province_id": "314",
            "slogan": null,
            "latitude": "26.5378",
            "longitude": "54.0255",
            "lang": "fa",
            "img_url": null
        },
        {
            "attraction_id": "20615",
            "attraction_name": "ائل گلی تبریز",
            "attraction_province_name": "استان آذربایجان شرقی",
            "attraction_city_name": "تبریز",
            "attraction_city_id": "608",
            "attraction_province_id": "302",
            "slogan": null,
            "latitude": "38.0266",
            "longitude": "46.3648",
            "lang": "fa",
            "img_url": "http://data.parsdid.com/sites/default/files/styles/iranplanner/public/elgoli.jpg"
        },
        {
            "attraction_id": "20524",
            "attraction_name": "ارگ بم",
            "attraction_province_name": "استان کرمان",
            "attraction_city_name": "بم",
            "attraction_city_id": "653",
            "attraction_province_id": "316",
            "slogan": null,
            "latitude": "29.1155",
            "longitude": "58.3674",
            "lang": "fa",
            "img_url": null
        },
        {
            "attraction_id": "21654",
            "attraction_name": "ارگ بهارستان ( باغ زرشکی)",
            "attraction_province_name": "استان خراسان جنوبی",
            "attraction_city_name": "بیرجند",
            "attraction_city_id": "1030",
            "attraction_province_id": "319",
            "slogan": null,
            "latitude": "32.8776",
            "longitude": "59.214",
            "lang": "fa",
            "img_url": null
        },
        {
            "attraction_id": "27917",
            "attraction_name": "ارگ تاریخی راین",
            "attraction_province_name": "استان کرمان",
            "attraction_city_name": "ماهان",
            "attraction_city_id": "1332",
            "attraction_province_id": "316",
            "slogan": null,
            "latitude": "29.594",
            "longitude": "57.4375",
            "lang": "fa",
            "img_url": null
        },
        {
            "attraction_id": "29716",
            "attraction_name": "ارگ تبریز (علی شاه)",
            "attraction_province_name": "استان آذربایجان شرقی",
            "attraction_city_name": "تبریز",
            "attraction_city_id": "608",
            "attraction_province_id": "302",
            "slogan": null,
            "latitude": "38.0724",
            "longitude": "46.2889",
            "lang": "fa",
            "img_url": null
        },
        {
            "attraction_id": "30414",
            "attraction_name": "ارگ حاجی آباد",
            "attraction_province_name": "استان خراسان جنوبی",
            "attraction_city_name": "بیرجند",
            "attraction_city_id": "1030",
            "attraction_province_id": "319",
            "slogan": null,
            "latitude": "32.8741",
            "longitude": "59.4169",
            "lang": "fa",
            "img_url": null
        },
        {
            "attraction_id": "30085",
            "attraction_name": "ارگ سلطانیه",
            "attraction_province_name": "استان زنجان",
            "attraction_city_name": "سلطانیه",
            "attraction_city_id": "1680",
            "attraction_province_id": "332",
            "slogan": null,
            "latitude": "36.4349",
            "longitude": "48.7964",
            "lang": "fa",
            "img_url": null
        },
        {
            "attraction_id": "18100",
            "attraction_name": "ارگ کریمخانی",
            "attraction_province_name": "استان فارس",
            "attraction_city_name": "شیراز",
            "attraction_city_id": "483",
            "attraction_province_id": "309",
            "slogan": null,
            "latitude": "29.6176",
            "longitude": "52.5447",
            "lang": "fa",
            "img_url": "http://data.parsdid.com/sites/default/files/styles/iranplanner/public/Arg-e-Karimkhan-By-Ali-mosleh-1_wm-Copy-copy.jpg"
        },
        {
            "attraction_id": "21648",
            "attraction_name": "ارگ کلاه فرنگی (ارگ حسام الدوله)",
            "attraction_province_name": "استان خراسان جنوبی",
            "attraction_city_name": "بیرجند",
            "attraction_city_id": "1030",
            "attraction_province_id": "319",
            "slogan": null,
            "latitude": "32.8765",
            "longitude": "59.2082",
            "lang": "fa",
            "img_url": null
        },
        {
            "attraction_id": "29566",
            "attraction_name": "ارگ گوگد گلپایگان",
            "attraction_province_name": "استان اصفهان",
            "attraction_city_name": "گلپایگان",
            "attraction_city_id": "464",
            "attraction_province_id": "312",
            "slogan": null,
            "latitude": "33.4818",
            "longitude": "50.3569",
            "lang": "fa",
            "img_url": null
        },
        {
            "attraction_id": "29922",
            "attraction_name": "اسکله بندر ترکمن",
            "attraction_province_name": "استان گلستان",
            "attraction_city_name": "بندر ترکمن",
            "attraction_city_id": "941",
            "attraction_province_id": "308",
            "slogan": null,
            "latitude": "36.8969",
            "longitude": "54.0424",
            "lang": "fa",
            "img_url": null
        },
        {
            "attraction_id": "23991",
            "attraction_name": "اسکله تفریحی کیش",
            "attraction_province_name": "استان هرمزگان",
            "attraction_city_name": "کیش",
            "attraction_city_id": "588",
            "attraction_province_id": "314",
            "slogan": null,
            "latitude": "26.5481",
            "longitude": "54.0236",
            "lang": "fa",
            "img_url": null
        },
        {
            "attraction_id": "30373",
            "attraction_name": "امام زاده علی اکبر",
            "attraction_province_name": "استان سمنان",
            "attraction_city_name": "گرمسار",
            "attraction_city_id": "1067",
            "attraction_province_id": "329",
            "slogan": null,
            "latitude": "35.2084",
            "longitude": "52.4556",
            "lang": "fa",
            "img_url": null
        },
        {
            "attraction_id": "30006",
            "attraction_name": "امام زاده هاشم (ع)",
            "attraction_province_name": "استان گیلان",
            "attraction_city_name": "رشت",
            "attraction_city_id": "947",
            "attraction_province_id": "307",
            "slogan": null,
            "latitude": "37.0229",
            "longitude": "49.625",
            "lang": "fa",
            "img_url": null
        },
        {
            "attraction_id": "29931",
            "attraction_name": "امامزاده آق امام",
            "attraction_province_name": "استان گلستان",
            "attraction_city_name": "آزادشهر",
            "attraction_city_id": "943",
            "attraction_province_id": "308",
            "slogan": null,
            "latitude": "37.1321",
            "longitude": "55.2052",
            "lang": "fa",
            "img_url": null
        },
        {
            "attraction_id": "30003",
            "attraction_name": "امامزاده آقا سید شریف",
            "attraction_province_name": "استان گیلان",
            "attraction_city_name": "رشت",
            "attraction_city_id": "947",
            "attraction_province_id": "307",
            "slogan": null,
            "latitude": "37.183",
            "longitude": "49.5166",
            "lang": "fa",
            "img_url": null
        },
        {
            "attraction_id": "29347",
            "attraction_name": "امامزاده آقا علی عباس و شاهزاده محمد",
            "attraction_province_name": "استان اصفهان",
            "attraction_city_name": "بادرود",
            "attraction_city_id": "3194",
            "attraction_province_id": "312",
            "slogan": null,
            "latitude": "33.7284",
            "longitude": "52.0691",
            "lang": "fa",
            "img_url": "http://data.parsdid.com/sites/default/files/styles/iranplanner/public/aghaaliabbas.jpg"
        },
        {
            "attraction_id": "29414",
            "attraction_name": "امامزاده آقام شهید",
            "attraction_province_name": "استان فارس",
            "attraction_city_name": "فراشبند",
            "attraction_city_id": "1604",
            "attraction_province_id": "309",
            "slogan": null,
            "latitude": "28.5973",
            "longitude": "52.2254",
            "lang": "fa",
            "img_url": null
        },
        {
            "attraction_id": "30210",
            "attraction_name": "امامزاده ابوالعلی مهدی ",
            "attraction_province_name": "استان مرکزی",
            "attraction_city_name": "تفرش",
            "attraction_city_id": "1096",
            "attraction_province_id": "324",
            "slogan": null,
            "latitude": "34.6915",
            "longitude": "50.0122",
            "lang": "fa",
            "img_url": null
        },
        {
            "attraction_id": "29512",
            "attraction_name": "امامزاده حسین ابن موسی کاظم",
            "attraction_province_name": "استان خراسان جنوبی",
            "attraction_city_name": "طبس",
            "attraction_city_id": "643",
            "attraction_province_id": "319",
            "slogan": null,
            "latitude": "33.6019",
            "longitude": "56.9068",
            "lang": "fa",
            "img_url": null
        },
        {
            "attraction_id": "29417",
            "attraction_name": "امامزاده داوود (خرقه)",
            "attraction_province_name": "استان فارس",
            "attraction_city_name": "فراشبند",
            "attraction_city_id": "1604",
            "attraction_province_id": "309",
            "slogan": null,
            "latitude": "28.9044",
            "longitude": "52.3763",
            "lang": "fa",
            "img_url": null
        },
        {
            "attraction_id": "29654",
            "attraction_name": "امامزاده دو برادر",
            "attraction_province_name": "استان لرستان",
            "attraction_city_name": "خرم آباد",
            "attraction_city_id": "599",
            "attraction_province_id": "323",
            "slogan": null,
            "latitude": "33.4889",
            "longitude": "48.3509",
            "lang": "fa",
            "img_url": null
        },
        {
            "attraction_id": "29364",
            "attraction_name": "امامزاده زنجیری",
            "attraction_province_name": "استان فارس",
            "attraction_city_name": "شیراز",
            "attraction_city_id": "483",
            "attraction_province_id": "309",
            "slogan": null,
            "latitude": "29.6092",
            "longitude": "52.5494",
            "lang": "fa",
            "img_url": "http://data.parsdid.com/sites/default/files/styles/iranplanner/public/zanjirishrine.jpg"
        },
        {
            "attraction_id": "30291",
            "attraction_name": "امامزاده سید جلال الدین اشرف",
            "attraction_province_name": "استان گیلان",
            "attraction_city_name": "آستانه اشرفیه",
            "attraction_city_id": "952",
            "attraction_province_id": "307",
            "slogan": null,
            "latitude": "37.2604",
            "longitude": "49.9443",
            "lang": "fa",
            "img_url": null
        },
        {
            "attraction_id": "30558",
            "attraction_name": "امامزاده سید حمزه و باغمزار",
            "attraction_province_name": "استان خراسان رضوی",
            "attraction_city_name": "کاشمر",
            "attraction_city_id": "456",
            "attraction_province_id": "318",
            "slogan": null,
            "latitude": "35.242",
            "longitude": "58.4712",
            "lang": "fa",
            "img_url": null
        },
        {
            "attraction_id": "30389",
            "attraction_name": "امامزاده سید مرتضی",
            "attraction_province_name": "استان خراسان رضوی",
            "attraction_city_name": "کاشمر",
            "attraction_city_id": "456",
            "attraction_province_id": "318",
            "slogan": null,
            "latitude": "35.2869",
            "longitude": "58.4742",
            "lang": "fa",
            "img_url": null
        },
        {
            "attraction_id": "29585",
            "attraction_name": "امامزاده سیدعبدالله کلور",
            "attraction_province_name": "استان اردبیل",
            "attraction_city_name": "خلخال",
            "attraction_city_id": "624",
            "attraction_province_id": "310",
            "slogan": null,
            "latitude": "37.3846",
            "longitude": "48.7208",
            "lang": "fa",
            "img_url": null
        },
        {
            "attraction_id": "29783",
            "attraction_name": "امامزاده شاهزاده حسین",
            "attraction_province_name": "استان قزوین",
            "attraction_city_name": "قزوین",
            "attraction_city_id": "929",
            "attraction_province_id": "327",
            "slogan": null,
            "latitude": "36.2575",
            "longitude": "50.001",
            "lang": "fa",
            "img_url": null
        },
        {
            "attraction_id": "29835",
            "attraction_name": "امامزاده شیرمرد",
            "attraction_province_name": "استان فارس",
            "attraction_city_name": "نور آباد‎",
            "attraction_city_id": "2097",
            "attraction_province_id": "309",
            "slogan": null,
            "latitude": null,
            "longitude": null,
            "lang": "fa",
            "img_url": null
        },
        {
            "attraction_id": "17696",
            "attraction_name": "امامزاده صالح",
            "attraction_province_name": "استان تهران",
            "attraction_city_name": "تهران",
            "attraction_city_id": "342",
            "attraction_province_id": "330",
            "slogan": null,
            "latitude": "35.8051",
            "longitude": "51.4297",
            "lang": "fa",
            "img_url": "http://data.parsdid.com/sites/default/files/styles/iranplanner/public/IMAGE635000825117579110.jpg"
        },
        {
            "attraction_id": "30031",
            "attraction_name": "امامزاده طاهر",
            "attraction_province_name": "استان البرز",
            "attraction_city_name": "کرج",
            "attraction_city_id": "1015",
            "attraction_province_id": "301",
            "slogan": null,
            "latitude": "35.8172",
            "longitude": "50.9231",
            "lang": "fa",
            "img_url": null
        },
        {
            "attraction_id": "17697",
            "attraction_name": "امامزاده عبدالعظیم حسنی",
            "attraction_province_name": "استان تهران",
            "attraction_city_name": "ری",
            "attraction_city_id": "478",
            "attraction_province_id": "330",
            "slogan": null,
            "latitude": "35.5862",
            "longitude": "51.4352",
            "lang": "fa",
            "img_url": "http://data.parsdid.com/sites/default/files/styles/iranplanner/public/12056.jpg"
        },
        {
            "attraction_id": "29755",
            "attraction_name": "امامزاده علی بن جعفر",
            "attraction_province_name": "استان سمنان",
            "attraction_city_name": "سمنان",
            "attraction_city_id": "1064",
            "attraction_province_id": "329",
            "slogan": null,
            "latitude": "35.5732",
            "longitude": "53.3932",
            "lang": "fa",
            "img_url": null
        },
        {
            "attraction_id": "29996",
            "attraction_name": "امامزاده عون بن علی(ع)",
            "attraction_province_name": "استان گیلان",
            "attraction_city_name": "ماسوله",
            "attraction_city_id": "3168",
            "attraction_province_id": "307",
            "slogan": null,
            "latitude": "37.1553",
            "longitude": "48.9897",
            "lang": "fa",
            "img_url": null
        },
        {
            "attraction_id": "29992",
            "attraction_name": "امامزاده عینعلی خانقاه گیلوان",
            "attraction_province_name": "استان اردبیل",
            "attraction_city_name": "خلخال",
            "attraction_city_id": "624",
            "attraction_province_id": "310",
            "slogan": null,
            "latitude": "37.2911",
            "longitude": "48.8283",
            "lang": "fa",
            "img_url": null
        },
        {
            "attraction_id": "29917",
            "attraction_name": "امامزاده محمد",
            "attraction_province_name": "استان سمنان",
            "attraction_city_name": "بسطام",
            "attraction_city_id": "1321",
            "attraction_province_id": "329",
            "slogan": null,
            "latitude": "36.4843",
            "longitude": "55.0003",
            "lang": "fa",
            "img_url": null
        },
        {
            "attraction_id": "29519",
            "attraction_name": "امامزاده هارون جوستان",
            "attraction_province_name": "استان البرز",
            "attraction_city_name": "طالقان",
            "attraction_city_id": "1596",
            "attraction_province_id": "301",
            "slogan": null,
            "latitude": "36.1859",
            "longitude": "50.8971",
            "lang": "fa",
            "img_url": null
        },
        {
            "attraction_id": "29975",
            "attraction_name": "امامزاده ولی ضیاء آباد",
            "attraction_province_name": "استان قزوین",
            "attraction_city_name": "تاکستان",
            "attraction_city_id": "932",
            "attraction_province_id": "327",
            "slogan": null,
            "latitude": "36.0022",
            "longitude": "49.4619",
            "lang": "fa",
            "img_url": null
        },
        {
            "attraction_id": "28514",
            "attraction_name": "اورامان تخت پیر شالیار",
            "attraction_province_name": "استان کردستان",
            "attraction_city_name": "سروآباد",
            "attraction_city_id": "1115",
            "attraction_province_id": "322",
            "slogan": null,
            "latitude": "35.2524",
            "longitude": "46.2612",
            "lang": "fa",
            "img_url": "http://data.parsdid.com/sites/default/files/styles/iranplanner/public/pirshaliar.jpg"
        },
        {
            "attraction_id": "21104",
            "attraction_name": "اکو موزه میراث روستایی گیلان",
            "attraction_province_name": "استان گیلان",
            "attraction_city_name": "رشت",
            "attraction_city_id": "947",
            "attraction_province_id": "307",
            "slogan": null,
            "latitude": "37.1422",
            "longitude": "49.6194",
            "lang": "fa",
            "img_url": "http://data.parsdid.com/sites/default/files/styles/iranplanner/public/muzeMiras.jpg"
        },
        {
            "attraction_id": "30168",
            "attraction_name": "ایوان",
            "attraction_province_name": "استان خراسان رضوی",
            "attraction_city_name": "تربت جام",
            "attraction_city_id": "453",
            "attraction_province_id": "318",
            "slogan": null,
            "latitude": "35.2473",
            "longitude": "60.6287",
            "lang": "fa",
            "img_url": null
        },
        {
            "attraction_id": "30100",
            "attraction_name": "ایوان رزمگاه",
            "attraction_province_name": "استان خراسان رضوی",
            "attraction_city_name": "فریمان",
            "attraction_city_id": "457",
            "attraction_province_id": "318",
            "slogan": null,
            "latitude": "35.7272",
            "longitude": "60.2938",
            "lang": "fa",
            "img_url": null
        },
        {
            "attraction_id": "27926",
            "attraction_name": "بادگیر چپقی",
            "attraction_province_name": "استان کرمان",
            "attraction_city_name": "سیرجان",
            "attraction_city_id": "1331",
            "attraction_province_id": "316",
            "slogan": null,
            "latitude": "29.4457",
            "longitude": "55.6744",
            "lang": "fa",
            "img_url": null
        },
        {
            "attraction_id": "30372",
            "attraction_name": "بازار آرادان",
            "attraction_province_name": "استان سمنان",
            "attraction_city_name": "آرادان",
            "attraction_city_id": "1681",
            "attraction_province_id": "329",
            "slogan": null,
            "latitude": "35.2498",
            "longitude": "52.4948",
            "lang": "fa",
            "img_url": null
        },
        {
            "attraction_id": "28512",
            "attraction_name": "بازار بانه",
            "attraction_province_name": "استان کردستان",
            "attraction_city_name": "بانه",
            "attraction_city_id": "1117",
            "attraction_province_id": "322",
            "slogan": null,
            "latitude": "35.9961",
            "longitude": "45.8826",
            "lang": "fa",
            "img_url": "http://data.parsdid.com/sites/default/files/styles/iranplanner/public/banebazar.jpg"
        },
        {
            "attraction_id": "28793",
            "attraction_name": "بازار بزرگ بندر عباس",
            "attraction_province_name": "استان هرمزگان",
            "attraction_city_name": "بندر عباس",
            "attraction_city_id": "593",
            "attraction_province_id": "314",
            "slogan": null,
            "latitude": "27.1779",
            "longitude": "56.2744",
            "lang": "fa",
            "img_url": "http://data.parsdid.com/sites/default/files/styles/iranplanner/public/bandarabbasbazaar.jpg"
        },
        {
            "attraction_id": "28480",
            "attraction_name": "بازار بهبهان",
            "attraction_province_name": "استان خوزستان",
            "attraction_city_name": "بهبهان",
            "attraction_city_id": "1049",
            "attraction_province_id": "321",
            "slogan": null,
            "latitude": "30.599",
            "longitude": "50.2394",
            "lang": "fa",
            "img_url": "http://data.parsdid.com/sites/default/files/styles/iranplanner/public/BAZBehbahan.jpg"
        },
        {
            "attraction_id": "20122",
            "attraction_name": "بازار تاریخی ارومیه",
            "attraction_province_name": "استان آذربایجان غربی",
            "attraction_city_name": "ارومیه",
            "attraction_city_id": "636",
            "attraction_province_id": "303",
            "slogan": null,
            "latitude": "37.5511",
            "longitude": "45.0739",
            "lang": "fa",
            "img_url": "http://data.parsdid.com/sites/default/files/styles/iranplanner/public/bazarOrum.jpg"
        },
        {
            "attraction_id": "24132",
            "attraction_name": "بازار تجریش",
            "attraction_province_name": "استان تهران",
            "attraction_city_name": "تهران",
            "attraction_city_id": "342",
            "attraction_province_id": "330",
            "slogan": null,
            "latitude": "35.8055",
            "longitude": "51.4303",
            "lang": "fa",
            "img_url": "http://data.parsdid.com/sites/default/files/styles/iranplanner/public/tajrish.jpg"
        },
        {
            "attraction_id": "17693",
            "attraction_name": "بازار تهران",
            "attraction_province_name": "استان تهران",
            "attraction_city_name": "تهران",
            "attraction_city_id": "342",
            "attraction_province_id": "330",
            "slogan": null,
            "latitude": "35.6685",
            "longitude": "51.4243",
            "lang": "fa",
            "img_url": "http://data.parsdid.com/sites/default/files/styles/iranplanner/public/Tehran_Old_Bazaar.jpg"
        },
        {
            "attraction_id": "30022",
            "attraction_name": "بازار جمعه کوتنا",
            "attraction_province_name": "استان مازندران",
            "attraction_city_name": "قائم شهر",
            "attraction_city_id": "1087",
            "attraction_province_id": "326",
            "slogan": null,
            "latitude": "36.4487",
            "longitude": "52.9157",
            "lang": "fa",
            "img_url": null
        },
        {
            "attraction_id": "28437",
            "attraction_name": "بازار رضا",
            "attraction_province_name": "استان خراسان رضوی",
            "attraction_city_name": "مشهد",
            "attraction_city_id": "441",
            "attraction_province_id": "318",
            "slogan": null,
            "latitude": "36.2801",
            "longitude": "59.6153",
            "lang": "fa",
            "img_url": "http://data.parsdid.com/sites/default/files/styles/iranplanner/public/bazarreza.jpg"
        },
        {
            "attraction_id": "30313",
            "attraction_name": "بازار روز ایرانشهر",
            "attraction_province_name": "استان سیستان و بلوچستان",
            "attraction_city_name": "ایرانشهر",
            "attraction_city_id": "1070",
            "attraction_province_id": "333",
            "slogan": null,
            "latitude": "27.2095",
            "longitude": "60.6877",
            "lang": "fa",
            "img_url": null
        },
        {
            "attraction_id": "29435",
            "attraction_name": "بازار ساوه",
            "attraction_province_name": "استان مرکزی",
            "attraction_city_name": "ساوه",
            "attraction_city_id": "1094",
            "attraction_province_id": "324",
            "slogan": null,
            "latitude": "35.0183",
            "longitude": "50.3619",
            "lang": "fa",
            "img_url": null
        },
        {
            "attraction_id": "20050",
            "attraction_name": "بازار سرپوشیده (قیصریه)",
            "attraction_province_name": "استان اردبیل",
            "attraction_city_name": "اردبیل",
            "attraction_city_id": "343",
            "attraction_province_id": "310",
            "slogan": null,
            "latitude": "38.2501",
            "longitude": "48.2974",
            "lang": "fa",
            "img_url": "http://data.parsdid.com/sites/default/files/styles/iranplanner/public/ardebil.jpg"
        },
        {
            "attraction_id": "29034",
            "attraction_name": "بازار سنتی رشت",
            "attraction_province_name": "استان گیلان",
            "attraction_city_name": "رشت",
            "attraction_city_id": "947",
            "attraction_province_id": "307",
            "slogan": null,
            "latitude": "37.2775",
            "longitude": "49.5912",
            "lang": "fa",
            "img_url": "http://data.parsdid.com/sites/default/files/styles/iranplanner/public/bazarRasht.jpg"
        },
        {
            "attraction_id": "21855",
            "attraction_name": "بازار سنتی زنجان",
            "attraction_province_name": "استان زنجان",
            "attraction_city_name": "زنجان",
            "attraction_city_id": "1057",
            "attraction_province_id": "332",
            "slogan": null,
            "latitude": "36.6681",
            "longitude": "48.4726",
            "lang": "fa",
            "img_url": "http://data.parsdid.com/sites/default/files/styles/iranplanner/public/zanjanbazaar.JPG"
        },
        {
            "attraction_id": "29940",
            "attraction_name": "بازار سنتی نعلبندان",
            "attraction_province_name": "استان گلستان",
            "attraction_city_name": "گرگان",
            "attraction_city_id": "936",
            "attraction_province_id": "308",
            "slogan": null,
            "latitude": "36.8424",
            "longitude": "54.4298",
            "lang": "fa",
            "img_url": null
        },
        {
            "attraction_id": "30292",
            "attraction_name": "بازار سنتی پشت حرم",
            "attraction_province_name": "استان گیلان",
            "attraction_city_name": "آستانه اشرفیه",
            "attraction_city_id": "952",
            "attraction_province_id": "307",
            "slogan": null,
            "latitude": "37.2605",
            "longitude": "49.9435",
            "lang": "fa",
            "img_url": null
        },
        {
            "attraction_id": "29312",
            "attraction_name": "بازار سنتی کاشان",
            "attraction_province_name": "استان اصفهان",
            "attraction_city_name": "کاشان",
            "attraction_city_id": "347",
            "attraction_province_id": "312",
            "slogan": null,
            "latitude": "33.9869",
            "longitude": "51.4523",
            "lang": "fa",
            "img_url": "http://data.parsdid.com/sites/default/files/styles/iranplanner/public/bazarKashan.jpg"
        },
        {
            "attraction_id": "22072",
            "attraction_name": "بازار سنتی کرمانشاه",
            "attraction_province_name": "استان کرمانشاه",
            "attraction_city_name": "کرمانشاه",
            "attraction_city_id": "1102",
            "attraction_province_id": "320",
            "slogan": null,
            "latitude": "34.317",
            "longitude": "47.0699",
            "lang": "fa",
            "img_url": "http://data.parsdid.com/sites/default/files/styles/iranplanner/public/bazarsonatiKermanshah.jpg"
        },
        {
            "attraction_id": "22329",
            "attraction_name": "بازار سنندج",
            "attraction_province_name": "استان کردستان",
            "attraction_city_name": "سنندج",
            "attraction_city_id": "1112",
            "attraction_province_id": "322",
            "slogan": null,
            "latitude": "35.3158",
            "longitude": "46.9989",
            "lang": "fa",
            "img_url": "http://data.parsdid.com/sites/default/files/styles/iranplanner/public/bazarsanandaj.jpg"
        },
        {
            "attraction_id": "28546",
            "attraction_name": "بازار شوشتر",
            "attraction_province_name": "استان خوزستان",
            "attraction_city_name": "شوشتر",
            "attraction_city_id": "1042",
            "attraction_province_id": "321",
            "slogan": null,
            "latitude": "32.0416",
            "longitude": "48.851",
            "lang": "fa",
            "img_url": "http://data.parsdid.com/sites/default/files/styles/iranplanner/public/bazarshooshtar.jpg"
        },
        {
            "attraction_id": "28813",
            "attraction_name": "بازار صنایع دستی",
            "attraction_province_name": "استان اصفهان",
            "attraction_city_name": "اصفهان",
            "attraction_city_id": "344",
            "attraction_province_id": "312",
            "slogan": null,
            "latitude": "32.6579",
            "longitude": "51.6775",
            "lang": "fa",
            "img_url": "http://data.parsdid.com/sites/default/files/styles/iranplanner/public/manualArtEsf.jpg"
        },
        {
            "attraction_id": "30223",
            "attraction_name": "بازار قدیمی ملایر",
            "attraction_province_name": "استان همدان",
            "attraction_city_name": "ملایر",
            "attraction_city_id": "961",
            "attraction_province_id": "334",
            "slogan": null,
            "latitude": "34.2939",
            "longitude": "48.8198",
            "lang": "fa",
            "img_url": null
        },
        {
            "attraction_id": "28582",
            "attraction_name": "بازار ماهی فروشان بندر عباس",
            "attraction_province_name": "استان هرمزگان",
            "attraction_city_name": "بندر عباس",
            "attraction_city_id": "593",
            "attraction_province_id": "314",
            "slogan": null,
            "latitude": "27.1745",
            "longitude": "56.2674",
            "lang": "fa",
            "img_url": "http://data.parsdid.com/sites/default/files/styles/iranplanner/public/mahiforushan.jpg"
        },
        {
            "attraction_id": "29762",
            "attraction_name": "بازار ماهی فروشان لنگرود",
            "attraction_province_name": "استان گیلان",
            "attraction_city_name": "لنگرود",
            "attraction_city_id": "954",
            "attraction_province_id": "307",
            "slogan": null,
            "latitude": "37.1952",
            "longitude": "50.1521",
            "lang": "fa",
            "img_url": null
        },
        {
            "attraction_id": "29648",
            "attraction_name": "بازار ماهی فروشان هرمز",
            "attraction_province_name": "استان هرمزگان",
            "attraction_city_name": "قشم",
            "attraction_city_id": "589",
            "attraction_province_id": "314",
            "slogan": null,
            "latitude": "26.8119",
            "longitude": "55.8913",
            "lang": "fa",
            "img_url": null
        },
        {
            "attraction_id": "28964",
            "attraction_name": "بازار محلی خاش",
            "attraction_province_name": "استان سیستان و بلوچستان",
            "attraction_city_name": "خاش",
            "attraction_city_id": "1074",
            "attraction_province_id": "333",
            "slogan": null,
            "latitude": "28.219",
            "longitude": "61.2103",
            "lang": "fa",
            "img_url": "http://data.parsdid.com/sites/default/files/styles/iranplanner/public/khashbaazar.jpg"
        },
        {
            "attraction_id": "30203",
            "attraction_name": "بازار محلی و ماهی فروشان فریدونکنار",
            "attraction_province_name": "استان مازندران",
            "attraction_city_name": "فریدون کنار",
            "attraction_city_id": "1342",
            "attraction_province_id": "326",
            "slogan": null,
            "latitude": "36.6824",
            "longitude": "52.4979",
            "lang": "fa",
            "img_url": null
        },
        {
            "attraction_id": "29049",
            "attraction_name": "بازار مرزی",
            "attraction_province_name": "استان گیلان",
            "attraction_city_name": "آستارا",
            "attraction_city_id": "944",
            "attraction_province_id": "307",
            "slogan": null,
            "latitude": "38.422",
            "longitude": "48.8767",
            "lang": "fa",
            "img_url": "http://data.parsdid.com/sites/default/files/styles/iranplanner/public/astara.jpg"
        },
        {
            "attraction_id": "29583",
            "attraction_name": "بازار مریوان",
            "attraction_province_name": "استان کردستان",
            "attraction_city_name": "مریوان",
            "attraction_city_id": "1119",
            "attraction_province_id": "322",
            "slogan": null,
            "latitude": "35.6137",
            "longitude": "46.0385",
            "lang": "fa",
            "img_url": null
        },
        {
            "attraction_id": "23981",
            "attraction_name": "بازار منطقه آزاد انزلی",
            "attraction_province_name": "استان گیلان",
            "attraction_city_name": "بندر انزلی",
            "attraction_city_id": "950",
            "attraction_province_id": "307",
            "slogan": null,
            "latitude": "37.4549",
            "longitude": "49.6681",
            "lang": "fa",
            "img_url": "http://data.parsdid.com/sites/default/files/styles/iranplanner/public/anzali.jpg"
        },
        {
            "attraction_id": "29391",
            "attraction_name": "بازار هنر",
            "attraction_province_name": "استان اصفهان",
            "attraction_city_name": "اصفهان",
            "attraction_city_id": "344",
            "attraction_province_id": "312",
            "slogan": null,
            "latitude": "32.6524",
            "longitude": "51.6684",
            "lang": "fa",
            "img_url": "http://data.parsdid.com/sites/default/files/styles/iranplanner/public/honarbazaar.jpg"
        },
        {
            "attraction_id": "18015",
            "attraction_name": "بازار وکیل",
            "attraction_province_name": "استان فارس",
            "attraction_city_name": "شیراز",
            "attraction_city_id": "483",
            "attraction_province_id": "309",
            "slogan": null,
            "latitude": "29.615",
            "longitude": "52.5468",
            "lang": "fa",
            "img_url": null
        },
        {
            "attraction_id": "29812",
            "attraction_name": "بازار چهارسوق",
            "attraction_province_name": "استان یزد",
            "attraction_city_name": "اردکان",
            "attraction_city_id": "652",
            "attraction_province_id": "331",
            "slogan": null,
            "latitude": "32.3189",
            "longitude": "54.0205",
            "lang": "fa",
            "img_url": null
        },
        {
            "attraction_id": "29845",
            "attraction_name": "بازار کازرون",
            "attraction_province_name": "استان فارس",
            "attraction_city_name": "کازرون",
            "attraction_city_id": "488",
            "attraction_province_id": "309",
            "slogan": null,
            "latitude": "29.6197",
            "longitude": "51.655",
            "lang": "fa",
            "img_url": null
        },
        {
            "attraction_id": "29646",
            "attraction_name": "بازار کرمانشاه",
            "attraction_province_name": "استان کرمانشاه",
            "attraction_city_name": "کرمانشاه",
            "attraction_city_id": "1102",
            "attraction_province_id": "320",
            "slogan": null,
            "latitude": "34.3133",
            "longitude": "47.061",
            "lang": "fa",
            "img_url": null
        },
        {
            "attraction_id": "28831",
            "attraction_name": "بازار یزد",
            "attraction_province_name": "استان یزد",
            "attraction_city_name": "یزد",
            "attraction_city_id": "644",
            "attraction_province_id": "331",
            "slogan": null,
            "latitude": "31.8965",
            "longitude": "54.3667",
            "lang": "fa",
            "img_url": "http://data.parsdid.com/sites/default/files/styles/iranplanner/public/bazarKhan.jpg"
        },
        {
            "attraction_id": "29616",
            "attraction_name": "بازارهای درگهان",
            "attraction_province_name": "استان هرمزگان",
            "attraction_city_name": "قشم",
            "attraction_city_id": "589",
            "attraction_province_id": "314",
            "slogan": null,
            "latitude": "26.9572",
            "longitude": "56.064",
            "lang": "fa",
            "img_url": null
        },
        {
            "attraction_id": "29647",
            "attraction_name": "بازارهای قشم",
            "attraction_province_name": "استان هرمزگان",
            "attraction_city_name": "قشم",
            "attraction_city_id": "589",
            "attraction_province_id": "314",
            "slogan": null,
            "latitude": "26.8119",
            "longitude": "55.8913",
            "lang": "fa",
            "img_url": null
        },
        {
            "attraction_id": "23959",
            "attraction_name": "بازارهای چابهار",
            "attraction_province_name": "استان سیستان و بلوچستان",
            "attraction_city_name": "چابهار",
            "attraction_city_id": "1071",
            "attraction_province_id": "333",
            "slogan": null,
            "latitude": "25.2936",
            "longitude": "60.6331",
            "lang": "fa",
            "img_url": null
        },
        {
            "attraction_id": "30369",
            "attraction_name": "بازارچه صنایع دستی و کارخانه پنبه",
            "attraction_province_name": "استان سمنان",
            "attraction_city_name": "گرمسار",
            "attraction_city_id": "1067",
            "attraction_province_id": "329",
            "slogan": null,
            "latitude": "35.2143",
            "longitude": "52.3528",
            "lang": "fa",
            "img_url": null
        },
        {
            "attraction_id": "30374",
            "attraction_name": "بازارچه مرزی بندر ترکمن",
            "attraction_province_name": "استان گلستان",
            "attraction_city_name": "بندر ترکمن",
            "attraction_city_id": "941",
            "attraction_province_id": "308",
            "slogan": null,
            "latitude": "36.8968",
            "longitude": "54.0477",
            "lang": "fa",
            "img_url": null
        },
        {
            "attraction_id": "30384",
            "attraction_name": "بازارچه مرزی جلفا",
            "attraction_province_name": "استان آذربایجان شرقی",
            "attraction_city_name": "جلفا",
            "attraction_city_id": "609",
            "attraction_province_id": "302",
            "slogan": null,
            "latitude": "38.942",
            "longitude": "45.6335",
            "lang": "fa",
            "img_url": null
        },